[
  {
    "NAME": "Rigolet Airport",
    "City": "Rigolet",
    "PROV": "NL",
    "Lng": -58.4575,
    "Lat": 54.1797,
    "LocationID": "YRG"
  },
  {
    "NAME": "Smithers Airport",
    "City": "Smithers",
    "PROV": "BC",
    "Lng": -127.1835,
    "Lat": 54.8247,
    "LocationID": "YYD"
  },
  {
    "NAME": "Vancouver International Airport",
    "City": "Vancouver",
    "PROV": "BC",
    "Lng": -123.1626,
    "Lat": 49.1898,
    "LocationID": "YVR"
  },
  {
    "NAME": "St. John's International Airport",
    "City": "St. John's",
    "PROV": "NL",
    "Lng": -52.7364,
    "Lat": 47.6184,
    "LocationID": "YYT"
  },
  {
    "NAME": "Erik Nielsen Whitehorse International Airport",
    "City": "Whitehrose",
    "PROV": "YT",
    "Lng": -135.0675,
    "Lat": 60.7101,
    "LocationID": "YXY"
  },
  {
    "NAME": "Yellowknife Airport",
    "City": "Yellowknife",
    "PROV": "NT",
    "Lng": -114.4424,
    "Lat": 62.463,
    "LocationID": "YZF"
  },
  {
    "NAME": "Toronto Pearson International Airport",
    "City": "Toronto",
    "PROV": "ON",
    "Lng": -79.5987,
    "Lat": 43.6781,
    "LocationID": "YYZ"
  },
  {
    "NAME": "Val-d'Or Airport",
    "City": "Val-d'Or",
    "PROV": "QC",
    "Lng": -77.7832,
    "Lat": 48.0535,
    "LocationID": "YVO"
  },
  {
    "NAME": "Victoria International Airport",
    "City": "Victoria",
    "PROV": "BC",
    "Lng": -123.4304,
    "Lat": 48.6405,
    "LocationID": "YYJ"
  },
  {
    "NAME": "Winnipeg James Armstrong Richardson International Airport",
    "City": "Winnipeg",
    "PROV": "MB",
    "Lng": -97.2245,
    "Lat": 49.9076,
    "LocationID": "YWG"
  },
  {
    "NAME": "Sherbrooke",
    "City": "Sherbrooke",
    "PROV": "QC",
    "Lng": -71.6913,
    "Lat": 45.4386,
    "LocationID": "YSC"
  },
  {
    "NAME": "Greater Sudbury Airport",
    "City": "Sudbury",
    "PROV": "ON",
    "Lng": -80.789,
    "Lat": 46.6253,
    "LocationID": "YSB"
  },
  {
    "NAME": "London International Airport",
    "City": "London",
    "PROV": "ON",
    "Lng": -81.1482,
    "Lat": 43.0325,
    "LocationID": "YXU"
  },
  {
    "NAME": "Greater Moncton Rom√©o LeBlanc International Airport",
    "City": "Moncton",
    "PROV": "NB",
    "Lng": -64.6849,
    "Lat": 46.1118,
    "LocationID": "YQM"
  },
  {
    "NAME": "Coral Harbour Airport",
    "City": "Coral Harbour",
    "PROV": "NU",
    "Lng": -83.36,
    "Lat": 64.1938,
    "LocationID": "YZS"
  },
  {
    "NAME": "Grande Prairie Airport",
    "City": "Grande Prairie",
    "PROV": "AB",
    "Lng": -118.8786,
    "Lat": 55.1799,
    "LocationID": "YQU"
  },
  {
    "NAME": "Lethbridge Airport",
    "City": "Lethbridge",
    "PROV": "AB",
    "Lng": -112.7877,
    "Lat": 49.6325,
    "LocationID": "YQL"
  },
  {
    "NAME": "Prince Rupert Airport",
    "City": "Prince Rupert",
    "PROV": "BC",
    "Lng": -130.4447,
    "Lat": 54.2859,
    "LocationID": "YPR"
  },
  {
    "NAME": "Abbotsford International Airport",
    "City": "Abbotsford",
    "PROV": "BC",
    "Lng": -122.3811,
    "Lat": 49.0219,
    "LocationID": "YXX"
  },
  {
    "NAME": "Saguenay-Bagotville Airport",
    "City": "Saguenay",
    "PROV": "QC",
    "Lng": -70.9926,
    "Lat": 48.3319,
    "LocationID": "YBG"
  },
  {
    "NAME": "Thunder Bay International Airport",
    "City": "Thunder Bay",
    "PROV": "ON",
    "Lng": -89.3234,
    "Lat": 48.3722,
    "LocationID": "YQT"
  },
  {
    "NAME": "Calgary International Airport",
    "City": "Calgary",
    "PROV": "AB",
    "Lng": -114.0072,
    "Lat": 51.1147,
    "LocationID": "YYC"
  },
  {
    "NAME": "Charlottetown Airport",
    "City": "Charlottetown",
    "PROV": "PEI",
    "Lng": -63.1257,
    "Lat": 46.2886,
    "LocationID": "YYG"
  },
  {
    "NAME": "Churchill Airport",
    "City": "Churchill",
    "PROV": "MB",
    "Lng": -94.0669,
    "Lat": 58.7373,
    "LocationID": "YYQ"
  },
  {
    "NAME": "Cold Lake Regional Airport",
    "City": "Cold Lake",
    "PROV": "AB",
    "Lng": -110.2695,
    "Lat": 54.4777,
    "LocationID": "EN5"
  },
  {
    "NAME": "Deer Lake Airport",
    "City": "Deer Lake",
    "PROV": "NL",
    "Lng": -57.3915,
    "Lat": 49.2112,
    "LocationID": "YDF"
  },
  {
    "NAME": "Dawson City Airport",
    "City": "Dawson City",
    "PROV": "YT",
    "Lng": -139.1304,
    "Lat": 64.042,
    "LocationID": "YDA"
  },
  {
    "NAME": "Fredericton International Airport",
    "City": "Fredericton",
    "PROV": "NB",
    "Lng": -66.5233,
    "Lat": 45.8706,
    "LocationID": "YFC"
  },
  {
    "NAME": "Gander International Airport",
    "City": "Gander",
    "PROV": "NL",
    "Lng": -54.5629,
    "Lat": 48.937,
    "LocationID": "YQX"
  },
  {
    "NAME": "Goose Bay Airport",
    "City": "Happy Valley - Goose Bay",
    "PROV": "NL",
    "Lng": -60.4026,
    "Lat": 53.3181,
    "LocationID": "YYR"
  },
  {
    "NAME": "Fort McMurray International Airport",
    "City": "Ford McMurray",
    "PROV": "AB",
    "Lng": -111.2217,
    "Lat": 56.6532,
    "LocationID": "YMM"
  },
  {
    "NAME": "Halifax Stanfield International Airport",
    "City": "Halifax",
    "PROV": "NS",
    "Lng": -63.5149,
    "Lat": 44.8866,
    "LocationID": "YHZ"
  },
  {
    "NAME": "Hamilton International Airport",
    "City": "Hamilton",
    "PROV": "ON",
    "Lng": -79.9276,
    "Lat": 43.1612,
    "LocationID": "YHM"
  },
  {
    "NAME": "Kipling Airport",
    "City": "Kipling",
    "PROV": "SK",
    "Lng": -102.6147,
    "Lat": 50.1002,
    "LocationID": "KD5"
  },
  {
    "NAME": "Mont Tremblant International Airport",
    "City": "Mont Tremblant",
    "PROV": "QC",
    "Lng": -74.7802,
    "Lat": 46.4096,
    "LocationID": "YTM"
  },
  {
    "NAME": "Inuvik Airport",
    "City": "Inuvik",
    "PROV": "NT",
    "Lng": -133.4799,
    "Lat": 68.3057,
    "LocationID": "YEV"
  },
  {
    "NAME": "Kamloops Airport",
    "City": "Kamloops",
    "PROV": "BC",
    "Lng": -120.4372,
    "Lat": 50.703,
    "LocationID": "YKA"
  },
  {
    "NAME": "Kingston Normal Rogers Airport",
    "City": "Kingston",
    "PROV": "ON",
    "Lng": -76.5959,
    "Lat": 44.2251,
    "LocationID": "YGK"
  },
  {
    "NAME": "Region of Waterloo International Airport",
    "City": "Waterloo",
    "PROV": "ON",
    "Lng": -80.383,
    "Lat": 43.4587,
    "LocationID": "YKF"
  },
  {
    "NAME": "Kelowna International Airport",
    "City": "Kelowna",
    "PROV": "BC",
    "Lng": -119.3782,
    "Lat": 49.9591,
    "LocationID": "YLW"
  },
  {
    "NAME": "Medicine Hat Airport",
    "City": "Medicine Hat",
    "PROV": "AB",
    "Lng": -110.7209,
    "Lat": 50.0191,
    "LocationID": "YXH"
  },
  {
    "NAME": "Montreal-Mirabel International Airport",
    "City": "Mirabel",
    "PROV": "QC",
    "Lng": -74.0322,
    "Lat": 45.6836,
    "LocationID": "YMX"
  },
  {
    "NAME": "Montreal International Airport",
    "City": "Montreal",
    "PROV": "QC",
    "Lng": -73.7391,
    "Lat": 45.4689,
    "LocationID": "YUL"
  },
  {
    "NAME": "Nanaimo Airport",
    "City": "Nanaimo",
    "PROV": "BC",
    "Lng": -123.8704,
    "Lat": 49.0525,
    "LocationID": "YCD"
  },
  {
    "NAME": "Ottawa International Airport",
    "City": "Ottawa",
    "PROV": "ON",
    "Lng": -75.6687,
    "Lat": 45.3235,
    "LocationID": "YOW"
  },
  {
    "NAME": "Red Deer Regional Airport",
    "City": "Red Deer",
    "PROV": "AB",
    "Lng": -113.889,
    "Lat": 52.1788,
    "LocationID": "YQF"
  },
  {
    "NAME": "Saskatoon International Airport",
    "City": "Saskatoon",
    "PROV": "SK",
    "Lng": -106.6958,
    "Lat": 52.1711,
    "LocationID": "YXE"
  },
  {
    "NAME": "Quebec City International Airport",
    "City": "Quebec City",
    "PROV": "QC",
    "Lng": -71.3858,
    "Lat": 46.791,
    "LocationID": "YQB"
  },
  {
    "NAME": "Prince George Airport",
    "City": "Prince George",
    "PROV": "BC",
    "Lng": -122.668,
    "Lat": 53.8895,
    "LocationID": "YXS"
  },
  {
    "NAME": "Edmonton International Airport",
    "City": "Edmonton",
    "PROV": "AB",
    "Lng": -113.5883,
    "Lat": 53.3098,
    "LocationID": "YEG"
  },
  {
    "NAME": "Iqaluit Airport",
    "City": "Iqaluit",
    "PROV": "NU",
    "Lng": -68.5558,
    "Lat": 63.7564,
    "LocationID": "YFB"
  },
  {
    "NAME": "Gatineau Airport",
    "City": "Gatineau",
    "PROV": "QC",
    "Lng": -75.5636,
    "Lat": 45.5215,
    "LocationID": "YND"
  },
  {
    "NAME": "Regina International Airport",
    "City": "Regina",
    "PROV": "SK",
    "Lng": -104.6661,
    "Lat": 50.4322,
    "LocationID": "YQR"
  },
  {
    "NAME": "Saint John Airport",
    "City": "Saint John",
    "PROV": "NB",
    "Lng": -65.883,
    "Lat": 45.3162,
    "LocationID": "YSJ"
  },
  {
    "NAME": "Thompson Airport",
    "City": "MYSTERY LAKE",
    "PROV": "MB",
    "Lng": -97.8562,
    "Lat": 55.8024,
    "LocationID": "YTH"
  },
  {
    "NAME": "Billy Bishop Toronto City Airport",
    "City": "Toronto City",
    "PROV": "ON",
    "Lng": -79.394,
    "Lat": 43.6281,
    "LocationID": "YTZ"
  }
]
